City,Cloudiness,Country,Date,Humidity,Max Temp,Lat,Lng,Wind Speed
tuktoyaktuk,40,CA,1586540019,84,-0.4,69.45,-133.04,9.17
tasiilaq,20,GL,1586540104,68,26.6,65.61,-37.64,1.54
sao filipe,0,CV,1586540104,69,76.95,14.9,-24.5,12.86
busselton,75,AU,1586540105,48,70.0,-33.65,115.33,14.16
ushuaia,75,AR,1586540105,70,46.4,-54.8,-68.3,23.04
georgetown,40,MY,1586540050,88,84.2,5.41,100.34,2.75
faanui,41,PF,1586539807,78,82.49,-16.48,-151.75,10.36
lorengau,97,PG,1586539806,77,81.66,-2.02,147.27,5.35
kapaa,1,US,1586540105,88,68.0,22.08,-159.32,6.93
barrow,75,US,1586540106,91,-14.8,71.29,-156.79,5.82
severo-kurilsk,77,RU,1586539827,95,31.05,50.68,156.12,14.74
codrington,91,AU,1586540106,75,56.32,-38.27,141.97,27.83
vestmannaeyjar,75,IS,1586540106,86,41.0,63.44,-20.27,25.28
cape town,3,ZA,1586539861,82,66.99,-33.93,18.42,4.7
kalmunai,58,LK,1586539886,75,81.82,7.42,81.82,8.46
mnogovershinnyy,0,RU,1586540106,89,18.79,53.94,139.92,2.19
vila franca do campo,20,PT,1586540107,68,64.4,37.72,-25.43,17.22
sambava,38,MG,1586540107,86,76.1,-14.27,50.17,7.81
albany,90,US,1586540107,48,46.99,42.6,-73.97,20.8
sitka,1,US,1586539869,69,37.4,57.05,-135.33,6.17
punta arenas,75,CL,1586539878,66,48.2,-53.15,-70.92,17.22
mataura,6,NZ,1586540108,95,42.01,-46.19,168.86,1.01
hobart,90,AU,1586540108,93,55.4,-42.88,147.33,5.82
mount pleasant,1,US,1586540108,30,71.6,32.79,-79.86,10.29
ningxiang,55,CN,1586540108,54,35.82,37.34,111.21,2.98
boa viagem,96,BR,1586540108,66,84.96,-5.13,-39.73,5.84
vao,90,NC,1586540108,76,73.85,-22.67,167.48,12.12
tukrah,0,LY,1586540109,75,58.37,32.53,20.58,8.43
port alfred,95,ZA,1586540109,81,66.81,-33.59,26.89,2.44
ixtapa,5,MX,1586540109,61,82.4,20.7,-105.2,3.36
butaritari,100,KI,1586540075,72,83.86,3.07,172.79,7.23
carnarvon,77,AU,1586540109,100,77.0,-24.87,113.63,10.29
padang,96,ID,1586540109,77,78.62,-0.95,100.35,2.57
bowen,90,AU,1586540110,94,71.01,-20.02,148.23,2.24
bredasdorp,0,ZA,1586540110,72,66.2,-34.53,20.04,11.41
vaini,20,TO,1586540110,93,64.4,-21.2,-175.2,2.24
bonthe,55,SL,1586540110,76,84.42,7.53,-12.51,10.56
atuona,19,PF,1586540110,77,81.95,-9.8,-139.03,11.95
port hardy,75,CA,1586539883,76,50.0,50.7,-127.42,12.75
rikitea,94,PF,1586540111,75,76.86,-23.12,-134.97,6.13
puerto ayora,20,EC,1586540111,66,86.0,-0.74,-90.35,5.82
hay river,75,CA,1586540111,85,19.4,60.82,-115.8,16.11
saskylakh,84,RU,1586540111,92,24.44,71.92,114.08,17.52
mahebourg,40,MU,1586540111,78,78.8,-20.41,57.7,13.87
chokurdakh,40,RU,1586540094,96,19.4,70.63,147.92,9.82
kyshtovka,54,RU,1586540112,97,30.34,56.55,76.63,7.74
ribeira grande,40,PT,1586540041,77,64.4,38.52,-28.7,5.82
denpasar,75,ID,1586540112,94,82.4,-8.65,115.22,5.82
lebu,25,CL,1586540041,66,62.53,-37.62,-73.65,6.87
katobu,38,ID,1586540113,88,75.29,-4.94,122.53,1.57
rio verde de mato grosso,28,BR,1586540113,52,82.54,-18.92,-54.84,3.8
xingcheng,27,CN,1586540113,52,46.26,40.62,120.72,7.4
zyryanka,10,RU,1586540113,92,16.34,65.75,150.85,16.64
iqaluit,40,CA,1586540113,72,10.4,63.75,-68.51,3.36
cabo san lucas,75,MX,1586540114,77,75.2,22.89,-109.91,3.36
avarua,100,CK,1586540114,100,77.0,-21.21,-159.78,1.12
hilo,90,US,1586540114,73,72.0,19.73,-155.09,3.36
moron,20,AR,1586540044,49,72.0,-34.65,-58.62,10.29
trincomalee,12,LK,1586540114,74,81.28,8.57,81.23,8.95
jamestown,90,US,1586540114,76,37.4,42.1,-79.24,25.28
yellowknife,20,CA,1586540114,66,12.99,62.46,-114.35,17.22
brae,100,GB,1586540115,93,46.4,60.4,-1.35,10.29
qaanaaq,0,GL,1586539824,83,8.28,77.48,-69.36,1.68
umea,57,SE,1586540115,41,41.0,63.83,20.26,13.87
corner brook,90,CA,1586540028,100,37.0,48.97,-57.95,19.46
torbay,90,CA,1586539870,92,36.0,47.67,-52.73,28.86
bonavista,100,CA,1586540116,88,32.0,48.65,-53.11,17.0
shingu,16,JP,1586540116,65,41.76,33.73,135.98,8.08
castro,37,BR,1586539857,34,71.74,-24.79,-50.01,4.25
los andes,3,CL,1586540116,63,73.99,-32.83,-70.6,5.82
carutapera,42,BR,1586540116,72,84.88,-1.2,-46.02,10.78
guerrero negro,32,MX,1586540116,57,64.26,27.98,-114.06,17.83
saldanha,13,ZA,1586540117,64,69.8,-33.01,17.94,11.41
novaya ladoga,14,RU,1586540117,43,34.0,60.1,32.3,4.97
tiksi,79,RU,1586540117,93,22.46,71.69,128.87,23.91
upernavik,9,GL,1586540117,86,18.19,72.79,-56.15,5.7
prigorodka,75,RU,1586540117,87,42.8,52.04,39.71,8.95
nambutalai,0,IN,1586540117,72,84.29,9.72,79.0,17.34
eyl,2,SO,1586540117,68,82.45,7.98,49.82,13.69
matara,22,LK,1586540118,86,78.03,5.95,80.54,5.39
east london,100,ZA,1586539854,78,69.82,-33.02,27.91,10.42
ust-ilimsk,98,RU,1586540118,80,34.5,58.0,102.66,1.19
mar del plata,40,AR,1586540066,63,66.2,-38.0,-57.56,12.75
langsa,100,ID,1586540118,84,76.96,4.47,97.97,1.63
cidreira,9,BR,1586540118,67,69.26,-30.18,-50.21,10.71
coquimbo,80,CL,1586540119,64,68.0,-29.95,-71.34,12.75
elbistan,96,TR,1586540119,42,48.27,38.21,37.2,8.72
homer,1,US,1586540119,68,34.0,59.64,-151.55,4.09
bluff,10,NZ,1586540119,95,42.01,-46.6,168.33,1.01
hamilton,75,US,1586540119,42,46.99,39.18,-84.53,11.41
vila velha,75,BR,1586539958,73,77.0,-20.33,-40.29,10.29
la ronge,90,CA,1586540120,68,30.2,55.1,-105.28,19.46
xichang,23,CN,1586540120,43,54.66,27.9,102.26,3.53
algodones,5,MX,1586540120,61,82.4,20.39,-105.48,3.36
new norfolk,90,AU,1586540120,93,55.4,-42.78,147.06,5.82
gizo,35,SB,1586540120,81,80.98,-8.1,156.84,6.98
altay,27,CN,1586540120,49,38.8,47.87,88.12,3.11
pedro leopoldo,75,BR,1586540121,61,82.4,-19.62,-44.04,3.36
luderitz,0,NA,1586540121,63,66.2,-26.65,15.16,3.36
vardo,100,NO,1586540121,90,30.22,70.37,31.11,17.72
alofi,100,NU,1586540121,83,75.2,-19.06,-169.92,4.7
muros,75,ES,1586540121,100,57.0,42.78,-9.06,4.7
svetlaya,99,RU,1586540122,94,29.01,46.54,138.33,4.99
japura,69,ID,1586540122,95,74.23,-0.32,102.35,0.67
port elizabeth,77,ZA,1586540122,88,62.6,-33.92,25.57,9.17
hermanus,2,ZA,1586540122,90,66.0,-34.42,19.23,3.69
hithadhoo,10,MV,1586539854,63,84.74,-0.6,73.08,5.3
namibe,5,AO,1586540123,56,77.07,-15.2,12.15,15.75
asfi,11,MA,1586540067,69,67.21,32.3,-9.24,20.29
nanakuli,75,US,1586539954,78,71.6,21.39,-158.15,4.7
kahului,1,US,1586540123,88,72.0,20.89,-156.47,4.25
gari,99,RU,1586540123,85,40.73,59.43,62.35,11.36
kwinana,3,AU,1586540123,53,82.4,-32.25,115.77,6.93
okha,0,RU,1586540124,96,19.76,53.57,142.95,5.97
gushikawa,1,JP,1586540124,93,68.0,26.35,127.87,5.82
esperance,75,AU,1586539941,87,60.8,-33.87,121.9,5.82
gondar,99,ET,1586540124,44,61.54,12.6,37.47,6.02
nyrob,89,RU,1586540124,82,41.83,60.73,56.72,12.73
honiara,75,SB,1586540124,94,77.0,-9.43,159.95,2.24
victoria,40,HK,1586540112,83,73.0,22.29,114.16,12.75
tessalit,75,ML,1586540125,8,96.48,20.2,1.01,7.92
dingle,2,PH,1586539827,80,78.42,11.0,122.67,9.4
broome,90,US,1586540125,86,37.0,42.25,-75.83,13.87
chuy,6,UY,1586540125,60,69.33,-33.7,-53.46,10.18
kaitangata,21,NZ,1586540125,83,52.0,-46.28,169.85,1.72
kruisfontein,57,ZA,1586539841,60,60.19,-34.0,24.73,3.09
moa,0,CU,1586540126,40,89.31,20.66,-74.94,6.08
lavrentiya,98,RU,1586540126,91,5.81,65.58,-171.0,9.93
egvekinot,0,RU,1586540126,83,-3.87,66.32,-179.17,5.77
anloga,20,GH,1586540126,70,86.0,5.79,0.9,9.17
fortuna,90,US,1586540126,100,55.99,40.6,-124.16,8.05
rogers,1,US,1586540127,15,57.99,36.37,-95.58,5.82
babushkin,0,RU,1586540127,52,40.64,51.71,105.86,2.46
khatanga,100,RU,1586540127,92,28.38,71.97,102.5,20.94
sioux lookout,75,CA,1586540127,50,30.2,50.1,-91.92,4.7
marystown,100,CA,1586540128,96,39.0,47.17,-55.15,26.62
lamesa,40,US,1586540128,48,63.0,32.74,-101.95,16.11
evensk,3,RU,1586540128,84,4.84,61.95,159.23,7.18
clyde river,90,CA,1586540128,85,12.2,70.47,-68.59,27.51
la motte-servolex,0,FR,1586540128,32,75.2,45.59,5.88,2.24
san cristobal,40,VE,1586540129,44,95.0,7.77,-72.22,6.93
rawson,32,AR,1586539982,35,77.92,-43.3,-65.1,23.33
saint-philippe,20,RE,1586540129,74,78.8,-21.36,55.77,19.46
hobyo,66,SO,1586539847,66,83.71,5.35,48.53,14.97
ygatimi,8,PY,1586540129,19,84.06,-24.08,-55.5,5.57
bambanglipuro,5,ID,1586540130,83,79.43,-7.95,110.28,3.98
yabrud,75,SY,1586540130,62,53.6,33.97,36.66,6.93
gladstone,90,AU,1586540130,83,71.6,-23.85,151.25,4.7
otane,3,NZ,1586540130,92,37.0,-39.88,176.63,2.8
puerto escondido,5,MX,1586539877,65,82.4,15.85,-97.07,9.17
tolaga bay,93,NZ,1586540130,77,57.2,-38.37,178.3,6.04
gurupa,50,BR,1586540130,75,86.07,-1.41,-51.64,3.49
acapulco,5,MX,1586540032,70,84.2,16.86,-99.89,8.05
betare oya,75,CM,1586540131,61,76.1,5.6,14.08,3.29
vicuna,22,CL,1586539837,64,68.0,-30.03,-70.71,12.75
otavi,15,NA,1586540131,44,68.29,-19.65,17.33,7.83
synya,99,RU,1586540131,94,23.63,65.37,58.04,10.87
meulaboh,92,ID,1586540131,84,79.39,4.14,96.13,4.59
provideniya,100,RU,1586539859,92,9.54,64.38,-173.3,15.28
aktash,69,RU,1586540131,60,16.34,50.3,87.73,1.81
neon karlovasion,0,GR,1586540132,48,64.4,37.79,26.7,12.75
oranjemund,0,NA,1586540132,73,60.3,-28.55,16.43,5.84
douglas,1,US,1586540040,36,48.99,41.3,-96.17,9.17
cherskiy,62,RU,1586540132,87,2.91,68.75,161.3,23.51
saint-georges,20,GD,1586540132,70,86.0,12.06,-61.75,19.46
miles city,1,US,1586540133,34,59.0,46.41,-105.84,4.7
ca mau,99,VN,1586540133,79,79.75,9.18,105.15,6.78
abha,40,SA,1586540133,77,68.0,18.22,42.51,11.41
oyama,5,JP,1586540133,37,51.01,36.3,139.8,4.88
ponta do sol,20,PT,1586540133,64,68.0,32.67,-17.1,12.75
hasaki,40,JP,1586540133,74,37.4,35.73,140.83,9.19
gazojak,58,TM,1586540134,36,54.41,41.19,61.4,2.98
karpathos,0,GR,1586539926,59,60.8,35.51,27.21,26.4
chicama,60,PE,1586540134,83,73.4,-7.84,-79.15,11.41
tortoli,5,IT,1586540134,88,62.6,39.93,9.66,3.36
oksfjord,100,NO,1586540134,63,30.2,70.24,22.35,12.75
mandurah,8,AU,1586539849,53,81.0,-32.55,115.7,6.93
lensk,82,RU,1586540134,90,31.84,60.73,114.93,4.0
boshnyakovo,94,RU,1586540135,91,22.39,49.63,142.17,10.2
great falls,90,US,1586539942,28,59.0,47.5,-111.3,11.41
lermontovka,100,RU,1586540135,72,37.27,47.15,134.34,4.25
belaya gora,90,RU,1586540135,98,30.56,68.53,146.42,5.77
buraydah,40,SA,1586540135,28,80.6,26.33,43.98,3.36
cam ranh,20,VN,1586540136,88,78.8,11.92,109.16,2.24
qaqortoq,100,GL,1586539866,28,42.8,60.72,-46.03,47.2
acari,58,PE,1586540136,52,81.21,-15.43,-74.62,9.78
kirakira,24,SB,1586540136,78,78.85,-10.45,161.92,5.59
coahuayana,5,MX,1586540136,24,89.6,18.73,-103.68,5.82
karratha,3,AU,1586540136,66,81.3,-20.74,116.85,8.72
kokuy,0,RU,1586540136,57,37.47,52.2,117.55,2.28
srednekolymsk,9,RU,1586540137,91,13.98,67.45,153.68,8.97
shelburne,75,CA,1586540128,69,44.6,44.08,-80.2,18.34
tuatapere,0,NZ,1586540137,95,42.01,-46.13,167.68,1.01
ahipara,41,NZ,1586540137,82,57.94,-35.17,173.17,4.88
barra,96,BR,1586540138,57,84.67,-11.09,-43.14,3.36
umm kaddadah,5,SD,1586540138,11,86.4,13.6,26.69,12.06
hirara,65,JP,1586540138,73,69.93,24.8,125.28,15.88
mayo,90,US,1586540138,36,51.01,38.89,-76.51,21.92
beringovskiy,100,RU,1586540139,94,5.32,63.05,179.32,15.43
hervey bay,66,AU,1586540139,100,70.0,-25.3,152.85,1.12
rio grande,75,BR,1586540015,64,73.4,-32.03,-52.1,12.75
zhigansk,45,RU,1586540139,94,22.3,66.77,123.37,13.53
sandwick,75,GB,1586540139,93,46.4,60.0,-1.25,5.82
diffa,100,NE,1586540140,10,90.36,13.32,12.61,7.94
esfahan,57,IR,1586540140,51,60.8,32.66,51.68,9.17
leningradskiy,0,RU,1586540140,80,-4.81,69.38,178.42,7.85
geraldton,3,AU,1586539850,72,68.0,-28.77,114.6,6.93
alice springs,0,AU,1586540080,51,59.0,-23.7,133.88,3.36
saint-augustin,97,CA,1586539879,96,30.97,51.23,-58.65,26.64
shimoda,75,JP,1586539842,70,48.2,34.67,138.95,3.36
hami,4,CN,1586540141,19,57.96,42.8,93.45,10.47
rabo de peixe,20,PT,1586540141,68,64.4,37.8,-25.58,17.22
ketchikan,20,US,1586539983,69,39.2,55.34,-131.65,23.04
kailua,75,US,1586540141,83,71.6,21.4,-157.74,4.38
lahad datu,30,MY,1586539855,90,73.85,5.03,118.33,2.17
itabira,40,BR,1586540142,57,80.6,-19.62,-43.23,3.36
ambulu,11,ID,1586540142,81,77.92,-8.35,113.61,3.33
takoradi,72,GH,1586540142,78,83.28,4.88,-1.76,5.93
kodiak,1,US,1586540034,79,26.6,57.79,-152.41,5.82
pisco,40,PE,1586540142,30,77.0,-13.7,-76.22,11.41
kichha,74,IN,1586540143,26,80.11,28.92,79.5,4.36
bilma,9,NE,1586540143,12,86.25,18.69,12.92,8.93
mikhaylovka,93,RU,1586540143,48,53.01,50.06,43.24,13.6
darhan,1,MN,1586540143,35,46.47,49.49,105.92,1.54
det udom,20,TH,1586540143,70,86.0,14.91,105.08,3.36
solnechnyy,1,RU,1586540143,92,26.65,50.72,136.63,4.25
makaha,20,US,1586540144,100,71.6,21.47,-158.22,3.67
avera,1,US,1586540144,22,66.0,33.19,-82.53,13.87
oron,64,NG,1586540144,81,82.63,4.83,8.23,5.17
nador,28,MA,1586540144,72,64.4,35.17,-2.93,6.93
ambrolauri,75,GE,1586540144,81,50.0,42.52,43.16,9.17
narsaq,100,GL,1586540144,28,42.8,60.92,-46.05,47.2
nikolskoye,75,RU,1586540145,60,39.2,59.7,30.79,6.71
tallahassee,90,US,1586540128,45,71.6,30.44,-84.28,10.29
boden,91,SE,1586540145,64,35.6,65.83,21.69,9.17
raton,90,US,1586540145,75,59.0,36.9,-104.44,8.05
lata,40,PT,1586540145,77,64.0,40.16,-8.33,9.17
drovyanaya,0,RU,1586540145,57,23.0,51.58,113.03,4.47
bengkulu,87,ID,1586540146,81,77.5,-3.8,102.27,4.09
kortkeros,90,RU,1586540146,92,32.0,61.81,51.58,8.95
samarai,28,PG,1586540146,82,78.91,-10.62,150.67,6.26
the valley,20,AI,1586539999,58,87.8,18.22,-63.06,8.05
lompoc,1,US,1586540093,81,62.01,34.64,-120.46,6.4
miguel auza,92,MX,1586540146,11,78.28,24.29,-103.45,18.07
whitehorse,5,CA,1586540043,56,24.01,60.72,-135.05,2.24
general roca,21,AR,1586540147,34,78.8,-39.03,-67.58,4.7
dikson,98,RU,1586540147,97,14.16,73.51,80.55,6.24
grand forks,75,US,1586540084,48,42.8,47.93,-97.03,13.87
chiclana,0,AR,1586540147,44,71.26,-35.73,-61.75,12.3
te anau,11,NZ,1586539881,72,45.99,-45.42,167.72,4.65
belmonte,75,BR,1586540148,94,77.0,-15.86,-38.88,6.93
kapit,100,MY,1586540148,94,75.0,2.02,112.93,0.74
auki,3,SB,1586540148,78,80.69,-8.77,160.7,3.98
muskegon heights,90,US,1586540148,60,42.01,43.2,-86.24,11.41
richards bay,42,ZA,1586540148,77,73.83,-28.78,32.04,20.74
puerto colombia,20,CO,1586540006,66,89.6,10.99,-74.95,11.41
kayes,0,ML,1586540148,6,104.72,14.0,-11.0,3.2
tabou,31,CI,1586540149,74,83.25,4.42,-7.35,7.2
thamaga,100,BW,1586540149,64,69.8,-24.67,25.54,5.82
havelock,75,US,1586540149,33,62.6,34.88,-76.9,21.92
walvis bay,5,NA,1586540149,77,69.01,-22.96,14.51,5.01
flinders,0,AU,1586540067,63,63.0,-34.58,150.86,17.22
norman wells,20,CA,1586540150,61,14.0,65.28,-126.83,3.36
besenyotelek,22,HU,1586540150,51,59.0,47.7,20.43,9.17
tavda,67,RU,1586540150,92,36.55,58.04,65.27,6.35
comodoro rivadavia,94,AR,1586540150,52,69.8,-45.87,-67.5,5.82
chifeng,0,CN,1586540150,40,42.15,42.27,118.96,9.86
terrace,75,CA,1586539944,57,44.01,54.52,-128.6,11.41
port augusta,16,AU,1586540150,48,64.4,-32.5,137.77,9.17
smidovich,72,RU,1586540151,74,35.28,48.6,133.82,13.42
okhotsk,0,RU,1586540151,92,23.16,59.38,143.3,6.85
ekhabi,0,RU,1586540151,96,19.29,53.51,142.97,6.06
sorland,100,NO,1586540151,80,34.18,67.67,12.69,17.0
namatanai,89,PG,1586540151,73,81.43,-3.67,152.43,3.36
mersin,75,TR,1586540151,93,59.0,36.86,34.65,3.36
tarko-sale,100,RU,1586540099,80,30.0,64.92,77.78,17.31
garowe,5,SO,1586540152,51,80.44,8.41,48.48,18.79
alyangula,90,AU,1586540152,100,75.2,-13.85,136.42,7.87
chirongui,20,YT,1586540152,74,84.2,-12.93,45.15,4.7
nsanje,9,MW,1586540152,86,71.35,-16.92,35.26,5.75
nantucket,20,US,1586540152,49,48.99,41.28,-70.1,34.45
ewa beach,75,US,1586540152,78,71.6,21.32,-158.01,4.7
jablonec,4,SK,1586540153,36,64.0,48.33,17.45,10.29
bilibino,5,RU,1586540153,81,-12.44,68.05,166.44,3.27
kon tum,85,VN,1586540153,76,70.99,14.35,108.0,2.28
dalbandin,79,PK,1586540153,22,79.79,28.89,64.41,9.04
qianguo,27,CN,1586540153,48,42.94,45.12,124.86,8.12
tibati,96,CM,1586540153,69,72.25,6.47,12.63,2.06
san francisco,90,US,1586540105,67,63.0,37.77,-122.42,9.17
akhtanizovskaya,5,RU,1586540154,75,48.0,45.32,37.1,6.71
havre-saint-pierre,90,CA,1586540154,51,35.6,50.23,-63.6,28.86
campbell,75,US,1586540154,42,46.99,38.95,-84.38,11.41
jamui,0,IN,1586540154,14,83.97,24.92,86.22,2.73
banjar,75,ID,1586540154,94,82.4,-8.19,114.97,5.82
farmington,1,US,1586540154,20,57.99,36.73,-108.22,4.7
sattahip,20,TH,1586540155,70,89.01,12.67,100.9,3.36
riyadh,100,SA,1586540007,14,91.4,24.69,46.72,13.87
tonj,50,SS,1586540155,45,86.25,7.27,28.68,1.5
makushino,10,RU,1586540155,79,39.51,55.21,67.24,11.03
whitecourt,75,CA,1586540155,55,35.6,54.15,-115.69,9.17
kokopo,96,PG,1586540155,79,78.62,-4.35,152.26,1.74
russell,1,US,1586540155,23,68.0,32.35,-85.2,12.75
chernyshevskiy,28,RU,1586540156,93,21.61,63.01,112.47,4.61
ciudad bolivar,97,VE,1586540156,28,99.16,8.12,-63.55,10.29
blackfoot,1,US,1586539859,41,57.2,43.19,-112.34,8.05
talnakh,75,RU,1586540156,93,32.0,69.49,88.4,26.84
usinsk,94,RU,1586540156,94,18.03,65.99,57.53,13.35
kieta,38,PG,1586540156,79,79.39,-6.22,155.63,3.85
nanortalik,100,GL,1586540157,78,36.39,60.14,-45.24,8.05
guilin,90,CN,1586540157,100,66.2,25.28,110.29,2.24
port keats,87,AU,1586540157,81,71.76,-14.25,129.55,18.57
axim,73,GH,1586540157,76,83.71,4.87,-2.24,6.08
sainte-adele,90,CA,1586540158,73,44.01,45.95,-74.13,12.75
klaksvik,100,FO,1586540158,87,44.6,62.23,-6.59,13.87
flin flon,90,CA,1586540158,86,28.4,54.77,-101.86,4.7
cayenne,75,GF,1586540158,70,86.0,4.93,-52.33,13.87
narimanov,0,RU,1586540158,35,44.01,46.69,47.85,6.71
lamu,100,KE,1586540158,80,82.31,-2.27,40.9,12.19
monastyrshchina,62,RU,1586540158,63,40.68,54.35,31.84,7.56
kurilsk,56,RU,1586540159,93,25.59,45.23,147.88,7.52
hakkari,76,TR,1586540159,43,35.15,37.58,44.17,4.23
khor,88,RU,1586540159,75,34.43,47.89,134.95,12.8
mareeba,99,AU,1586540159,88,73.4,-17.0,145.43,3.36
ostrovnoy,34,RU,1586540154,95,14.58,68.05,39.51,9.31
qeshm,98,IR,1586540159,45,82.4,26.96,56.27,6.93
rock sound,42,BS,1586540159,85,78.57,24.9,-76.2,13.87
turan,40,VN,1586540134,83,78.8,16.07,108.22,1.12
mount gambier,75,AU,1586540160,93,53.6,-37.83,140.77,19.46
severo-yeniseyskiy,95,RU,1586540160,94,23.04,60.37,93.04,6.2
itoman,75,JP,1586540160,64,68.0,26.12,127.67,6.93
nome,90,US,1586540160,79,24.8,64.5,-165.41,6.17
christchurch,0,NZ,1586539877,93,55.99,-43.53,172.63,6.93
hambantota,8,LK,1586540160,80,81.55,6.12,81.12,10.87
airai,42,TL,1586540161,72,60.17,-8.93,125.41,0.58
komsomolskiy,91,UZ,1586540161,66,50.0,40.43,71.72,4.7
arraial do cabo,75,BR,1586540161,73,75.2,-22.97,-42.03,6.93
boyarka,2,UA,1586540161,29,48.99,50.32,30.3,11.18
necochea,0,AR,1586540161,50,73.0,-38.55,-58.74,15.99
sawtell,19,AU,1586540161,88,62.6,-30.38,153.1,9.17
iwaki,1,JP,1586540162,78,39.0,37.05,140.88,1.99
safaga,1,EG,1586540162,33,73.4,26.73,33.94,20.8
dekar,96,BW,1586540162,52,68.29,-21.53,21.93,5.32
nouadhibou,0,MR,1586540162,60,75.2,20.93,-17.03,21.92
yola,99,NG,1586540162,45,86.09,9.2,12.48,5.82
laguna,1,US,1586540162,63,64.0,38.42,-121.42,3.36
maracaibo,99,VE,1586539931,59,88.16,10.63,-71.64,3.76
longyearbyen,20,SJ,1586540163,59,3.2,78.22,15.64,6.93
tandil,0,AR,1586540133,42,67.64,-37.32,-59.13,9.95
souillac,40,MU,1586540163,78,78.8,-20.52,57.52,13.87
erzin,40,TR,1586540163,72,59.0,36.96,36.2,8.05
krasnoarmeysk,59,RU,1586540163,44,48.99,51.02,45.7,4.0
thompson,75,CA,1586540163,39,30.2,55.74,-97.86,3.36
lixourion,0,GR,1586540163,31,62.01,38.2,20.43,3.0
touros,40,BR,1586540152,62,87.8,-5.2,-35.46,12.75
husavik,100,IS,1586540164,74,33.8,66.04,-17.34,11.41
sandpoint,1,US,1586539955,39,60.01,48.28,-116.55,4.7
coos bay,90,US,1586539966,93,51.01,43.37,-124.22,3.36
sao joao da barra,90,BR,1586540164,57,78.8,-21.64,-41.05,8.05
green river,1,US,1586540038,25,51.8,41.53,-109.47,17.22
katsuura,48,JP,1586540164,36,48.99,35.13,140.3,14.99
north battleford,75,CA,1586540165,80,36.0,52.78,-108.28,14.99
dinar,20,TR,1586540165,30,59.0,38.06,30.17,10.29
iskateley,0,RU,1586540165,94,13.6,67.68,53.15,6.73
pirgos,20,GR,1586540165,55,62.01,35.12,25.72,13.87
tilichiki,20,RU,1586540165,91,0.23,60.47,166.1,6.73
lewistown,90,US,1586540165,52,45.0,40.6,-77.57,25.28
bijawar,0,IN,1586540165,15,82.89,24.63,79.5,2.55
nakambala,34,ZM,1586540166,62,64.94,-15.83,27.78,4.99
bambous virieux,40,MU,1586540166,78,78.8,-20.34,57.76,13.87
port macquarie,75,AU,1586540166,100,60.01,-31.43,152.92,3.36
nehe,0,CN,1586540166,61,41.4,48.48,124.83,10.69
turukhansk,100,RU,1586540166,96,30.61,65.82,87.98,21.47
algiers,75,DZ,1586540109,82,62.6,36.75,3.04,8.05
ascension,1,US,1586540167,56,71.6,30.22,-90.9,10.29
san quintin,43,MX,1586540167,57,61.72,30.48,-115.95,8.01
anadyr,40,RU,1586540167,83,-9.0,64.75,177.48,4.47
mamlyutka,10,KZ,1586540168,82,40.91,54.94,68.54,9.57
numan,100,NG,1586540168,26,92.61,9.47,12.03,3.83
hofn,100,IS,1586540167,86,39.29,64.25,-15.21,11.32
moerewa,0,NZ,1586540168,93,48.99,-35.38,174.03,2.15
villeneuve-sur-lot,0,FR,1586540168,22,77.0,44.5,0.67,11.41
machilipatnam,5,IN,1586540169,79,79.79,16.17,81.13,6.6
slave lake,1,CA,1586540169,68,30.2,55.28,-114.77,13.87
isangel,59,VU,1586540045,67,75.49,-19.55,169.27,7.83
beloha,41,MG,1586540169,76,72.21,-25.17,45.05,19.22
myitkyina,0,MM,1586539952,39,72.93,25.38,97.4,3.11
atar,0,MR,1586540170,8,99.46,20.52,-13.05,14.0
deputatskiy,46,RU,1586540170,89,13.89,69.3,139.9,7.05
san jose de guanipa,96,VE,1586540170,39,91.18,8.89,-64.17,11.92
caarapo,40,BR,1586540170,24,80.4,-22.63,-54.82,6.91
umm lajj,20,SA,1586540170,36,72.97,25.02,37.27,13.29
kavieng,100,PG,1586540171,76,83.25,-2.57,150.8,6.58
naze,22,JP,1586540171,87,55.4,28.37,129.48,3.36
grajewo,56,PL,1586540171,94,50.0,53.65,22.46,8.08
sao desiderio,58,BR,1586540171,60,84.97,-12.36,-44.97,4.23
grindavik,90,IS,1586540171,93,39.2,63.84,-22.43,18.34
sumenep,56,ID,1586540171,78,80.98,-7.02,113.87,5.73
batagay-alyta,46,RU,1586540171,85,19.02,67.8,130.41,7.34
saint anthony,1,US,1586540172,41,45.0,45.02,-93.22,7.29
shestakovo,64,RU,1586539872,83,33.8,56.49,103.96,4.07
batticaloa,56,LK,1586540172,75,81.07,7.71,81.69,7.63
swellendam,0,ZA,1586540172,72,66.2,-34.02,20.44,11.41
wajid,57,SO,1586540172,49,84.63,3.81,43.25,9.01
urengoy,100,RU,1586540172,98,34.16,65.97,78.37,15.21
tazovskiy,96,RU,1586540173,93,20.41,67.47,78.7,9.91
kazlu ruda,39,LT,1586540173,29,50.0,54.77,23.5,9.17
west bay,40,KY,1586540173,70,86.0,19.37,-81.42,5.82
rafaela,0,AR,1586540173,33,78.01,-31.25,-61.49,5.01
chililabombwe,73,ZM,1586540173,60,63.84,-12.36,27.82,3.71
bakonycsernye,1,HU,1586540173,36,64.4,47.32,18.08,6.93
djambala,92,CG,1586540173,70,72.21,-2.54,14.75,3.04
lasa,5,IT,1586540174,40,75.2,46.62,10.7,2.24
leon valley,75,US,1586540174,77,72.0,29.5,-98.62,10.29
pontianak,98,ID,1586540174,87,78.06,-0.03,109.33,3.4
nokaneng,99,BW,1586540174,59,69.6,-19.67,22.27,4.9
cloquet,1,US,1586540174,38,42.01,46.72,-92.46,10.29
lusambo,79,CD,1586540174,82,74.5,-4.97,23.45,2.06
ancud,75,CL,1586540175,82,59.0,-41.87,-73.82,8.05
shizilu,100,CN,1586540175,83,42.46,35.17,118.83,6.11
portland,20,US,1586539937,66,59.0,45.52,-122.68,3.36
dicabisagan,94,PH,1586540175,84,76.17,17.08,122.42,4.7
tucuma,61,BR,1586540175,92,78.93,-0.18,-50.05,9.82
coihaique,90,CL,1586540175,76,57.2,-45.58,-72.07,3.36
bairiki,40,KI,1586540175,83,82.4,1.33,172.98,5.82
camopi,100,GF,1586540176,94,75.0,3.17,-52.32,3.13
lethem,95,GY,1586540176,40,95.94,3.38,-59.8,8.25
gat,75,IL,1586540176,82,60.8,31.61,34.76,4.7
les cayes,37,HT,1586540176,71,82.94,18.2,-73.75,4.32
alekseyevsk,85,RU,1586540176,84,34.3,57.84,108.35,4.43
boundiali,59,CI,1586540176,36,89.49,9.52,-6.49,13.58
tlacolula,40,MX,1586540177,28,80.6,16.95,-96.48,5.82
buchanan,27,LR,1586539882,76,82.54,5.88,-10.05,9.73
yar-sale,13,RU,1586540177,90,13.77,66.83,70.83,7.18
jackson,1,US,1586540177,50,62.01,42.42,-122.83,2.19
kaarina,20,FI,1586540177,59,37.4,60.41,22.37,9.17
bad windsheim,1,DE,1586540177,32,69.01,49.5,10.42,4.7
kenai,1,US,1586540178,72,28.99,60.55,-151.26,5.82
sistranda,20,NO,1586540178,86,39.99,63.73,8.83,13.87
milkovo,34,RU,1586540178,91,20.35,54.72,158.62,1.34
monrovia,38,LR,1586540178,72,83.12,6.3,-10.8,10.2
sao joaquim,46,BR,1586539911,41,58.69,-28.29,-49.93,4.5
george,1,ZA,1586540165,82,62.6,-33.96,22.46,1.12
constitucion,11,CL,1586540178,58,63.34,-35.33,-72.42,6.49
luau,100,AO,1586540179,69,67.5,-10.71,22.22,1.23
paracatu,62,BR,1586540179,56,81.5,-17.22,-46.87,3.29
najran,75,SA,1586540179,24,89.6,17.49,44.13,2.24
springfield,1,US,1586539994,39,52.0,37.22,-93.3,4.7
brigantine,75,US,1586540179,45,51.01,39.41,-74.36,23.04
xingyi,14,CN,1586540180,48,55.0,24.19,102.82,3.67
jalu,0,LY,1586540180,33,65.14,29.03,21.55,6.78
andenes,97,NO,1586540180,68,30.2,69.31,16.12,23.04
hanzhong,99,CN,1586540180,59,54.81,33.07,107.03,3.0
qiongshan,99,CN,1586540180,94,71.6,20.01,110.35,2.24
siavonga,37,ZM,1586540180,57,74.35,-16.54,28.71,2.17
imbituba,40,BR,1586539955,64,75.2,-28.24,-48.67,13.87
bathsheba,20,BB,1586540181,62,86.0,13.22,-59.52,16.11
ducheng,66,CN,1586540181,80,68.99,23.24,111.53,3.4
lendava,3,SI,1586540181,39,69.8,46.56,16.45,8.05
kidal,99,ML,1586540181,14,95.63,18.44,1.41,10.65
kichera,67,RU,1586540181,56,37.56,55.94,110.1,2.53
bereslavka,14,RU,1586540182,56,44.01,48.63,44.04,8.95
tambura,95,SS,1586540182,61,77.49,5.6,27.47,1.43
menongue,82,AO,1586540182,62,66.02,-14.66,17.69,5.37
zhangye,0,CN,1586540182,23,45.57,38.93,100.45,7.85
dalvik,100,IS,1586540182,74,33.8,65.97,-18.53,11.41
hammerfest,100,NO,1586540167,74,28.4,70.66,23.68,8.05
olga,70,RU,1586540183,87,34.77,43.74,135.29,12.46
tocopilla,19,CL,1586540183,33,83.89,-22.09,-70.2,7.29
pokhara,10,NP,1586540183,20,62.67,28.23,83.98,5.48
serov,100,RU,1586540183,81,41.05,59.6,60.58,10.6
santa cruz de la palma,40,ES,1586540183,78,71.6,28.68,-17.76,8.05
porto walter,35,BR,1586540183,78,83.5,-8.27,-72.74,3.42
port blair,75,IN,1586540184,70,82.31,11.67,92.75,7.74
mezen,22,RU,1586540184,93,16.54,65.85,44.24,3.83
shima,5,CN,1586540184,82,66.2,24.45,117.81,2.24
boldumsaz,96,TM,1586540184,36,53.6,42.13,59.67,4.7
gasa,75,PS,1586540184,82,60.8,31.5,34.47,4.7
shaunavon,100,CA,1586540098,65,38.95,49.65,-108.42,10.92
yenagoa,45,NG,1586540185,80,81.84,4.92,6.26,4.59
ucluelet,40,CA,1586540185,87,55.99,48.93,-125.55,8.05
san policarpo,32,PH,1586540185,74,80.35,12.18,125.51,7.18
ironton,90,US,1586540185,52,48.0,38.54,-82.68,11.41
chapais,75,CA,1586539961,35,39.2,49.78,-74.85,16.11
olesnica,72,PL,1586540185,35,55.4,51.21,17.39,4.7
cap malheureux,40,MU,1586540186,78,78.8,-19.98,57.61,13.87
nemuro,26,JP,1586540169,91,29.68,43.32,145.57,11.99
roblin,93,CA,1586540186,80,34.61,51.23,-101.36,8.01
dongning,34,CN,1586540186,62,40.35,44.06,131.12,6.6
jega,100,NG,1586540186,29,87.33,12.22,4.38,10.56
maple creek,100,CA,1586540187,63,40.62,49.92,-109.48,10.13
sterling,75,US,1586540051,34,51.01,39.01,-77.43,23.04
sao miguel,40,BR,1586540187,62,87.8,-5.47,-35.37,12.75
nongstoin,8,IN,1586540187,34,61.79,25.52,91.27,2.19
mitsamiouli,52,KM,1586540187,72,84.88,-11.38,43.28,9.98
ritchie,75,ZA,1586540187,88,66.2,-29.04,24.6,12.75
morondava,5,MG,1586540187,80,80.15,-20.28,44.28,8.86
khanpur,66,PK,1586540188,29,84.43,28.65,70.66,11.43
frontera,76,MX,1586540188,57,80.01,26.93,-101.45,4.0
changli,29,CN,1586540188,57,44.11,39.7,119.15,5.28
waipawa,0,NZ,1586540188,87,54.0,-41.41,175.52,11.41
den helder,90,NL,1586540188,71,59.0,52.96,4.76,9.17
caravelas,62,BR,1586540188,80,79.68,-17.71,-39.25,14.67
dickinson,75,US,1586540189,60,73.99,29.46,-95.05,11.41
vagamo,39,NO,1586540189,80,29.39,61.88,9.1,5.08
saint george,1,US,1586539993,57,59.0,37.1,-113.58,3.36
bethel,90,US,1586539941,48,48.99,41.37,-73.41,16.11
nhulunbuy,40,AU,1586540189,94,77.0,-12.23,136.77,9.78
podporozhye,82,RU,1586540190,95,28.38,60.91,34.17,1.68
tommot,19,RU,1586540190,80,33.31,58.96,126.29,5.93
nacala,40,MZ,1586540190,69,78.8,-14.54,40.67,12.75
pitiquito,0,MX,1586540190,42,70.0,30.7,-112.08,1.99
angoche,4,MZ,1586540191,84,76.82,-16.23,39.91,9.62
noumea,80,NC,1586539998,82,62.6,-22.28,166.46,3.36
tura,0,IN,1586540191,35,73.81,25.52,90.22,4.54
lufilufi,90,WS,1586540191,94,78.8,-13.87,-171.6,3.36
korop,71,UA,1586540192,59,43.23,51.57,32.96,10.54
tando jam,0,PK,1586540192,32,86.72,25.43,68.54,13.78
ponta delgada,20,PT,1586540192,68,64.4,37.73,-25.67,17.22
floro,15,NO,1586540192,71,43.0,61.6,5.03,6.93
uyemskiy,12,RU,1586540192,68,24.8,64.47,40.85,4.47
yumen,3,CN,1586540193,22,43.59,40.28,97.2,20.45
college,90,US,1586540193,78,17.01,64.86,-147.8,5.82
prince rupert,1,CA,1586540193,86,39.2,54.32,-130.32,13.87
asau,92,RO,1586540074,26,59.0,46.43,26.4,13.87
mgandu,44,TZ,1586540194,62,63.05,-5.95,34.13,5.77
mutsu,75,JP,1586540194,69,39.2,41.29,141.22,8.05
surgut,98,RU,1586540129,60,39.2,61.25,73.42,11.18
moroni,32,KM,1586540195,74,84.02,-11.7,43.26,10.8
macenta,4,GN,1586540195,47,85.95,8.54,-9.47,3.56
tutoia,40,BR,1586540195,70,89.6,-2.76,-42.27,12.75
karasjok,98,NO,1586540195,68,28.4,69.47,25.51,33.33
aklavik,40,CA,1586540195,56,14.0,68.22,-135.01,10.29
kirksville,1,US,1586540195,39,46.0,40.19,-92.58,4.7
yershichi,67,RU,1586540196,62,41.41,53.67,32.75,7.43
ukiah,1,US,1586540196,63,61.0,39.15,-123.21,4.7
storm lake,35,US,1586540196,33,44.6,42.64,-95.21,10.29
ilulissat,20,GL,1586540196,55,35.6,69.22,-51.1,5.82
grand gaube,40,MU,1586540197,78,78.8,-20.01,57.66,13.87
stornoway,100,GB,1586540197,81,54.0,58.21,-6.39,12.75
filadelfia,75,US,1586539989,31,48.99,39.95,-75.16,36.91
klyuchi,9,RU,1586540197,67,38.03,52.27,79.17,7.31
causapscal,100,CA,1586540198,78,32.0,48.35,-67.23,18.1
colares,20,PT,1586540198,72,66.2,38.8,-9.45,9.17
teya,93,RU,1586540198,94,25.32,60.38,92.63,5.64
vanavara,100,RU,1586540198,86,31.82,60.34,102.28,2.93
santa fe,0,AR,1586540174,37,79.0,-31.63,-60.7,5.01
kita,1,ML,1586540199,11,103.5,13.03,-9.49,3.56
jiayuguan,1,CN,1586540199,24,41.07,39.82,98.3,9.82
parrita,75,CR,1586540118,51,84.2,9.52,-84.32,17.22
haines junction,0,CA,1586540199,80,20.61,60.75,-137.51,0.6
abu samrah,13,SY,1586540199,66,54.12,35.3,37.18,15.84
quatre cocos,40,MU,1586540167,78,78.8,-20.21,57.76,13.87
caledon,2,ZA,1586540200,90,66.0,-34.23,19.43,0.34
caceres,13,ES,1586540200,64,66.99,39.52,-6.37,5.01
penzance,79,GB,1586539930,62,68.0,50.12,-5.54,18.34
mandalgovi,1,MN,1586540200,34,38.1,45.76,106.27,6.71
kavaratti,0,IN,1586540201,68,84.63,10.57,72.64,7.96
cabedelo,40,BR,1586540201,66,87.8,-6.98,-34.83,11.41
ambilobe,4,MG,1586540201,77,76.57,-13.2,49.05,7.27
rocha,13,UY,1586540201,60,68.63,-34.48,-54.33,9.19
beroroha,58,MG,1586540201,60,77.41,-21.67,45.17,11.41
san patricio,5,MX,1586540142,78,80.6,19.22,-104.7,5.82
sumbe,45,AO,1586540202,82,78.76,-11.21,13.84,3.74
aiken,1,US,1586540202,23,66.2,33.58,-81.6,20.8
sri aman,100,MY,1586540202,100,75.2,1.24,111.46,0.85
rio gallegos,40,AR,1586540202,28,59.0,-51.62,-69.22,14.99
wynyard,100,AU,1586540203,93,54.0,-41.0,145.72,8.01
galesong,20,ID,1586540203,100,77.0,-5.32,119.37,1.12
sangar,81,RU,1586540203,97,28.38,63.92,127.47,10.45
sakakah,40,SA,1586540180,28,68.0,29.97,40.21,3.36
fairbanks,90,US,1586540102,78,16.0,64.84,-147.72,3.36
fukuma,65,JP,1586540203,65,51.01,33.77,130.47,4.7
dunedin,13,NZ,1586540098,83,52.0,-45.87,170.5,7.85
sampit,36,ID,1586540204,95,75.02,-2.53,112.95,1.63
cockburn town,9,TC,1586540204,74,78.66,21.46,-71.14,2.33
zambezi,94,ZM,1586540204,60,69.01,-13.54,23.1,7.31
yerofey pavlovich,0,RU,1586540204,81,28.31,53.97,121.97,3.06
gondanglegi,14,ID,1586540205,90,75.67,-7.75,112.01,2.82
bassila,86,BJ,1586540205,38,86.74,9.01,1.67,4.05
hienghene,43,NC,1586540205,73,73.29,-20.68,164.93,6.98
odweyne,27,SO,1586540205,24,84.88,9.41,45.06,8.21
montepuez,2,MZ,1586540205,84,69.12,-13.13,39.0,6.08
celestun,85,MX,1586540206,45,88.18,20.87,-90.4,6.22
gibara,0,CU,1586540206,32,93.2,21.11,-76.13,5.82
mancio lima,75,BR,1586540206,62,89.6,-7.61,-72.9,6.93
zimapan,2,MX,1586540206,20,77.29,20.75,-99.35,7.18
ozernovskiy,89,RU,1586540206,91,30.0,51.5,156.52,6.11
inhambane,52,MZ,1586540206,78,73.4,-23.86,35.38,9.15
barcelos,75,PT,1586540047,82,64.0,41.54,-8.62,5.82
jadu,54,LY,1586540207,29,63.84,31.95,12.03,16.67
aksarayskiy,0,RU,1586540207,35,44.01,46.79,48.01,6.71
wanning,35,CN,1586540207,87,74.59,18.8,110.4,5.73
port hedland,0,AU,1586540207,88,75.2,-20.32,118.57,5.82
ust-kulom,100,RU,1586540208,91,39.18,61.69,53.69,8.34
acarau,99,BR,1586540184,73,85.21,-2.89,-40.12,8.93
makakilo city,20,US,1586540208,100,71.6,21.35,-158.09,3.78
saint-francois,1,FR,1586540208,28,73.4,46.42,3.91,4.7
